[
    { "name":"Beacon Avenue Food Bank",
      "address":"6230 Beacon Ave S",
      "website":"null",
      "longitude":"-122.300331",
      "latitude":"47.546769"
    },
    { "name":"Bo Da Dao Trang",
      "address":"3909 S Sunny View Dr",
      "website":"http://acrs.org/programs/nutrition.htm",
      "longitude":"-122.284441",
      "latitude":"47.515561"
    },
    { "name":"Central Area Motivation Program",
      "address":"722 18th Ave E",
      "website":"http://www.campseattle.org/Home/Food+Bank/default.aspx",
      "longitude":"-122.308541",
      "latitude":"47.625456"
    },
    { "name":"Emergency Feeding Program",
      "address":"2615 S Jackson St",
      "website":"http://www.emergencyfeeding.org/",
      "longitude":"-122.298464",
      "latitude":"47.599165"
    },
    { "name":"Indo-China Chinese Elderly Association",
      "address":"409 Maynard Ave S",
      "website":"http://acrs.org/programs/nutrition.htm",
      "longitude":"-122.325177",
      "latitude":"47.5991"
    },
    { "name":"Lake City Food Bank",
      "address":"12707 30th Ave NE",
      "website":"http://www.northhelpline.org/",
      "longitude":"-122.296462",
      "latitude":"47.721181"
    },
    { "name":"Phinney Ridge Food Bank",
      "address":"7500 Greenwood Ave N",
      "website":"http://www.prlc.org/foodbank.htm",
      "longitude":"-122.355178",
      "latitude":"47.683311"
    },
    { "name":"Salvation Army Food Bank",
      "address":"1101 Pike St",
      "website":"http://salvationarmynw.org/volunteer/foodbank.asp",
      "longitude":"-122.328816",
      "latitude":"47.613412"
    },
    { "name":"Seattle Indian Center",
      "address":"611 12th Ave S #300",
      "website":"http://www.seattleindiancenter.org/",
      "longitude":"-122.317349",
      "latitude":"47.597396"
    },
    { "name":"Tahanan Filipino Services",
      "address":"5740 M L King Jr Way S",
      "website":"http://www.filcomseattle.org/index.htm",
      "longitude":"-122.28778",
      "latitude":"47.550936"
    },
    { "name":"Volunteers Of America-Greenwood",
      "address":"9747 Greenwood Ave N",
      "website":"http://www.voaww.org/voa3f.cfm?SectionGroupsID=11&SectionListsID=11&PageID=234",
      "longitude":"-122.355521",
      "latitude":"47.699736"
    },
    { "name":"Spiritual Miracles Food Bank",
      "address":"7422 South 126th Street",
      "website":"http://www.seattle.gov/humanservices/emergencyservices/FoodBanksSeattleKingCounty.pdf",
      "longitude":"-122.24084",
      "latitude":"47.49142"
    },
    { "name":"Asian Counseling And Referral Services",
      "address":"720 8th Ave S",
      "website":"http://acrs.org/programs/nutrition.htm",
      "longitude":"-122.322334",
      "latitude":"47.596483"
    },
    { "name":"Ballard Food Bank",
      "address":"7005 24th Ave NW",
      "website":"http://www.ballardfoodbank.org",
      "longitude":"-122.387661",
      "latitude":"47.679582"
    },
    { "name":"Blessed Sacrament Food Bank",
      "address":"5050 8th Ave NE",
      "website":"http://www.blessed-sacrament.org/foodbank.html",
      "longitude":"-122.319416",
      "latitude":"47.665359"
    },
    { "name":"Cambodian Senior Club",
      "address":"9800 8th Ave SW",
      "website":"http://acrs.org/programs/nutrition.htm",
      "longitude":"-122.345149",
      "latitude":"47.515155"
    },
    { "name":"Cascade Immanuel Food Bank",
      "address":"1215 Thomas St",
      "website":"http://www.scn.org/frnf/immanuel.htm",
      "longitude":"-122.332595",
      "latitude":"47.620733"
    },
    { "name":"Chicken Soup Brigade",
      "address":"1002 E Seneca St",
      "website":"http://www.lifelongaidsalliance.org/csb",
      "longitude":"-122.319318",
      "latitude":"47.612259"
    },
    { "name":"Downtown Food Bank",
      "address":"1531 Western Ave 5th floor",
      "website":"http://www.pikemarketseniorcenter.org/",
      "longitude":"-122.341519",
      "latitude":"47.60863"
    },
    { "name":"El Centro De La Raza",
      "address":"2524 16th Ave S",
      "website":"http://www.elcentrodelaraza.com/programs/foodbank.htm",
      "longitude":"-122.31198",
      "latitude":"47.580786"
    },
    { "name":"Familyworks-Wallingford",
      "address":"1501 N 45th St",
      "website":"http://www.familyworksseattle.org/food_bank.htm",
      "longitude":"-122.339139",
      "latitude":"47.661302"
    },
    { "name":"Friendly Island Of Tonga Seniors",
      "address":"8319 8th Ave S",
      "website":"http://acrs.org/programs/nutrition.htm",
      "longitude":"-122.322996",
      "latitude":"47.528846"
    },
    { "name":"Jewish Family Service Food Bank",
      "address":"1601 16th Ave",
      "website":"http://www.jfsseattle.org/services/emergency.html",
      "longitude":"-122.311587",
      "latitude":"47.615313"
    },
    { "name":"Korean Senior Club Ii",
      "address":"153 14th Ave S",
      "website":"http://acrs.org/programs/nutrition.htm",
      "longitude":"-122.314268",
      "latitude":"47.601242"
    },
    { "name":"Northwest Community Services",
      "address":"4205 Rainier Ave S",
      "website":"null",
      "longitude":"-122.288711",
      "latitude":"47.565566"
    },
    { "name":"Operational Emergency Center",
      "address":"11827 Renton Ave S",
      "website":"http://www.oecagency.org/services.php",
      "longitude":"-122.245348",
      "latitude":"47.496876"
    },
    { "name":"Providence Regina House",
      "address":"8201 10th Ave S",
      "website":"http://www.providence.org/washington/regina_house/default.htm",
      "longitude":"-122.320351",
      "latitude":"47.529771"
    },
    { "name":"Puget Sound Labor Agency",
      "address":"2800 1st Ave",
      "website":"http://pslaonline.org/PSLA%20Preview/Our%20Services.htm",
      "longitude":"-122.351499",
      "latitude":"47.616432"
    },
    { "name":"Salvation Army White Center",
      "address":"9050 16th Ave SW",
      "website":"http://salvationarmynw.org/volunteer/foodbank.asp",
      "longitude":"-122.354989",
      "latitude":"47.522378"
    },
    { "name":"Samoan Senior Club",
      "address":"8319 8th Ave S",
      "website":"http://acrs.org/programs/nutrition.htm",
      "longitude":"-122.322996",
      "latitude":"47.528846"
    },
    { "name":"Seattle Korean Elders Association",
      "address":"104 17th Ave",
      "website":"http://acrs.org/programs/nutrition.htm",
      "longitude":"-122.310136",
      "latitude":"47.601781"
    },
    { "name":"Society Of St. Vincent De Paul-Georgetown Service Center",
      "address":"5950 4th Ave S",
      "website":"http://www.stvincentdepaul-seattle.org/index.html",
      "longitude":"-122.329456",
      "latitude":"47.549814"
    },
    { "name":"The Food Bank At St. Marys",
      "address":"611 20th Ave",
      "website":"http://www.seniorservices.org/online/detail.asp?id=3249&case=1",
      "longitude":"-122.306445",
      "latitude":"47.60728"
    },
    { "name":"University District Service League",
      "address":"4731 15th Ave NE",
      "website":"http://www.udistrictfoodbank.org/",
      "longitude":"-122.312083",
      "latitude":"47.66331"
    },
    { "name":"Vietnamese Friendship Association",
      "address":"1017 S Jackson St",
      "website":"http://acrs.org/programs/nutrition.htm",
      "longitude":"-122.31938",
      "latitude":"47.599102"
    },
    { "name":"West Seattle Food Bank",
      "address":"3518 SW Genesee St.",
      "website":"http://www.westseattlefoodbank.org/",
      "longitude":"-122.376998",
      "latitude":"47.564761"
    }
]